[{"station_id":"site_1420","station_name":"Ashok Vihar, Delhi - DPCC","city":"Delhi","lat":28.695381,"lon":77.181665,"ward_id":"delhi_66","pm25":287.0,"pm10":456.7,"aqi":417.0,"band":"Severe"},{"station_id":"site_103","station_name":"CRRI Mathura Road, Delhi - IMD","city":"Delhi","lat":28.5512005,"lon":77.2735737,"ward_id":"delhi_193","pm25":206.1,"pm10":321.9,"aqi":367.0,"band":"Very Poor"},{"station_id":"site_114","station_name":"IHBAS, Dilshad Garden, Delhi - CPCB","city":"Delhi","lat":28.6811736,"lon":77.3025234,"ward_id":"delhi_241","pm25":202.2,"pm10":345.2,"aqi":364.0,"band":"Very Poor"},{"station_id":"site_6060","station_name":"IIT Delhi, Delhi - IITM","city":"Delhi","lat":28.54246,"lon":77.191651,"ward_id":"delhi_161","pm25":200.2,"pm10":329.7,"aqi":362.0,"band":"Very Poor"},{"station_id":"site_1425","station_name":"Major Dhyan Chand National Stadium, Delhi - DPCC","city":"Delhi","lat":28.611281,"lon":77.237738,"ward_id":"delhi_NDMC_1","pm25":273.0,"pm10":398.0,"aqi":410.0,"band":"Severe"},{"station_id":"site_1561","station_name":"Mundka, Delhi - DPCC","city":"Delhi","lat":28.684678,"lon":77.076574,"ward_id":"delhi_42","pm25":330.7,"pm10":477.0,"aqi":433.0,"band":"Severe"},{"station_id":"site_1426","station_name":"Narela, Delhi - DPCC","city":"Delhi","lat":28.822836,"lon":77.101981,"ward_id":"delhi_1","pm25":397.8,"pm10":573.5,"aqi":485.0,"band":"Severe"},{"station_id":"site_1428","station_name":"Okhla Phase-2, Delhi - DPCC","city":"Delhi","lat":28.530785,"lon":77.271255,"ward_id":"delhi_199","pm25":318.3,"pm10":437.7,"aqi":428.0,"band":"Severe"},{"station_id":"site_1563","station_name":"Pusa, Delhi - DPCC","city":"Delhi","lat":28.639652,"lon":77.146275,"ward_id":"delhi_150","pm25":232.3,"pm10":365.3,"aqi":387.0,"band":"Very Poor"},{"station_id":"site_1430","station_name":"Rohini, Delhi - DPCC","city":"Delhi","lat":28.732528,"lon":77.11992,"ward_id":"delhi_21","pm25":303.7,"pm10":446.0,"aqi":422.0,"band":"Severe"},{"station_id":"site_113","station_name":"Shadipur, Delhi - CPCB","city":"Delhi","lat":28.6514781,"lon":77.1473105,"ward_id":"delhi_97","pm25":261.0,"pm10":348.0,"aqi":405.0,"band":"Severe"},{"station_id":"site_1435","station_name":"Vivek Vihar, Delhi - DPCC","city":"Delhi","lat":28.672342,"lon":77.31526,"ward_id":"delhi_239","pm25":329.9,"pm10":473.5,"aqi":433.0,"band":"Severe"},{"station_id":"site_164","station_name":"BWSSB Kadabesanahalli, Bengaluru - CPCB","city":"Bengaluru","lat":12.9352049,"lon":77.6814488,"ward_id":"bengaluru_115","pm25":97.0,"pm10":277.2,"aqi":228.0,"band":"Poor"},{"station_id":"site_1554","station_name":"Hebbal, Bengaluru - KSPCB","city":"Bengaluru","lat":13.029152,"lon":77.585901,"ward_id":"bengaluru_67","pm25":90.1,"pm10":153.7,"aqi":201.0,"band":"Poor"},{"station_id":"site_163","station_name":"Peenya, Bengaluru - CPCB","city":"Bengaluru","lat":13.0270199,"lon":77.494094,"ward_id":"bengaluru_28","pm25":26.9,"pm10":124.5,"aqi":117.0,"band":"Moderate"},{"station_id":"site_5678","station_name":"RVCE-Mailasandra, Bengaluru - KSPCB","city":"Bengaluru","lat":12.921418,"lon":77.502466,"ward_id":"bengaluru_34","pm25":68.1,"pm10":139.5,"aqi":128.0,"band":"Moderate"},{"station_id":"site_5811","station_name":"Chembur, Mumbai - MPCB","city":"Mumbai","lat":19.0364585,"lon":72.8954371,"ward_id":"mumbai_16","pm25":6.3,"pm10":76.7,"aqi":77.0,"band":"Satisfactory"},{"station_id":"site_5107","station_name":"Chhatrapati Shivaji Intl. Airport (T2), Mumbai - MPCB","city":"Mumbai","lat":19.10078,"lon":72.87462,"ward_id":"mumbai_19","pm25":49.6,"pm10":104.2,"aqi":104.0,"band":"Moderate"},{"station_id":"site_5120","station_name":"Colaba, Mumbai - MPCB","city":"Mumbai","lat":18.91,"lon":72.82,"ward_id":"mumbai_1","pm25":null,"pm10":null,"aqi":null,"band":null},{"station_id":"site_5394","station_name":"Mazgaon, Mumbai - IITM","city":"Mumbai","lat":18.96702,"lon":72.84214,"ward_id":"mumbai_5","pm25":42.2,"pm10":63.9,"aqi":71.0,"band":"Satisfactory"},{"station_id":"site_5413","station_name":"Mulund West, Mumbai - MPCB","city":"Mumbai","lat":19.175,"lon":72.9419,"ward_id":"mumbai_13","pm25":45.5,"pm10":159.9,"aqi":141.0,"band":"Moderate"},{"station_id":"site_5963","station_name":"Sewri, Mumbai - BMC","city":"Mumbai","lat":19.000084,"lon":72.85673,"ward_id":"mumbai_6","pm25":40.9,"pm10":72.1,"aqi":73.0,"band":"Satisfactory"},{"station_id":"site_5961","station_name":"Shivaji Nagar, Mumbai - BMC","city":"Mumbai","lat":19.060498,"lon":72.923356,"ward_id":"mumbai_16","pm25":27.8,"pm10":94.9,"aqi":95.0,"band":"Satisfactory"},{"station_id":"site_5102","station_name":"Vasai West, Mumbai - MPCB","city":"Mumbai","lat":19.3832,"lon":72.8204,"ward_id":null,"pm25":null,"pm10":null,"aqi":null,"band":null},{"station_id":"site_108","station_name":"Aya Nagar, Delhi - IMD","city":"Delhi","lat":28.4706914,"lon":77.1099364,"ward_id":"delhi_175","pm25":206.9,"pm10":435.3,"aqi":404.0,"band":"Severe"},{"station_id":"site_1424","station_name":"Jawaharlal Nehru Stadium, Delhi - DPCC","city":"Delhi","lat":28.58028,"lon":77.233829,"ward_id":"delhi_157","pm25":294.3,"pm10":440.0,"aqi":419.0,"band":"Severe"},{"station_id":"site_5395","station_name":"Lodhi Road, Delhi - IITM","city":"Delhi","lat":28.588333,"lon":77.221667,"ward_id":"delhi_NDMC_6","pm25":null,"pm10":null,"aqi":null,"band":null},{"station_id":"site_122","station_name":"Mandir Marg, Delhi - DPCC","city":"Delhi","lat":28.636429,"lon":77.201067,"ward_id":"delhi_NDMC_3","pm25":227.0,"pm10":390.0,"aqi":382.0,"band":"Very Poor"},{"station_id":"site_115","station_name":"NSIT Dwarka, Delhi - CPCB","city":"Delhi","lat":28.60909,"lon":77.0325413,"ward_id":"delhi_135","pm25":95.7,"pm10":336.0,"aqi":286.0,"band":"Poor"},{"station_id":"site_1562","station_name":"Sri Aurobindo Marg, Delhi - DPCC","city":"Delhi","lat":28.531346,"lon":77.190156,"ward_id":"delhi_161","pm25":243.7,"pm10":402.3,"aqi":395.0,"band":"Very Poor"},{"station_id":"site_1434","station_name":"Wazirpur, Delhi - DPCC","city":"Delhi","lat":28.699793,"lon":77.165453,"ward_id":"delhi_68","pm25":315.3,"pm10":454.0,"aqi":427.0,"band":"Severe"},{"station_id":"site_1555","station_name":"Hombegowda Nagar, Bengaluru - KSPCB","city":"Bengaluru","lat":12.938539,"lon":77.5901,"ward_id":"bengaluru_175","pm25":33.5,"pm10":93.8,"aqi":94.0,"band":"Satisfactory"},{"station_id":"site_1556","station_name":"Jayanagar 5th Block, Bengaluru - KSPCB","city":"Bengaluru","lat":12.920984,"lon":77.584908,"ward_id":"bengaluru_197","pm25":79.5,"pm10":152.7,"aqi":165.0,"band":"Moderate"},{"station_id":"site_5729","station_name":"Jigani, Bengaluru - KSPCB","city":"Bengaluru","lat":12.7816279,"lon":77.6299145,"ward_id":null,"pm25":48.0,"pm10":158.1,"aqi":139.0,"band":"Moderate"},{"station_id":"site_166","station_name":"Sanegurava Halli, Bengaluru - KSPCB","city":"Bengaluru","lat":12.990328,"lon":77.5431385,"ward_id":"bengaluru_144","pm25":null,"pm10":69.1,"aqi":70.0,"band":"Satisfactory"},{"station_id":"site_5686","station_name":"Shivapura_Peenya, Bengaluru - KSPCB","city":"Bengaluru","lat":13.0246342,"lon":77.5080115,"ward_id":"bengaluru_23","pm25":87.8,"pm10":168.2,"aqi":193.0,"band":"Moderate"},{"station_id":"site_1558","station_name":"Silk Board, Bengaluru - KSPCB","city":"Bengaluru","lat":12.917348,"lon":77.622813,"ward_id":"bengaluru_191","pm25":69.1,"pm10":180.0,"aqi":154.0,"band":"Moderate"},{"station_id":"site_5400","station_name":"Borivali East, Mumbai - IITM","city":"Mumbai","lat":19.23241,"lon":72.86895,"ward_id":"mumbai_11","pm25":53.4,"pm10":128.1,"aqi":120.0,"band":"Moderate"},{"station_id":"site_5396","station_name":"Deonar, Mumbai - IITM","city":"Mumbai","lat":19.04946,"lon":72.923,"ward_id":"mumbai_16","pm25":58.9,"pm10":138.0,"aqi":126.0,"band":"Moderate"},{"station_id":"site_5412","station_name":"Kandivali East, Mumbai - MPCB","city":"Mumbai","lat":19.2058,"lon":72.8682,"ward_id":"mumbai_22","pm25":9.8,"pm10":115.0,"aqi":111.0,"band":"Moderate"},{"station_id":"site_5962","station_name":"Kandivali West, Mumbai - BMC","city":"Mumbai","lat":19.215859,"lon":72.831718,"ward_id":"mumbai_11","pm25":52.9,"pm10":58.5,"aqi":88.0,"band":"Satisfactory"},{"station_id":"site_5398","station_name":"Navy Nagar-Colaba, Mumbai - IITM","city":"Mumbai","lat":18.897756,"lon":72.81332,"ward_id":"mumbai_1","pm25":47.1,"pm10":78.0,"aqi":79.0,"band":"Satisfactory"},{"station_id":"site_5115","station_name":"Worli, Mumbai - MPCB","city":"Mumbai","lat":18.9936162,"lon":72.8128113,"ward_id":"mumbai_7","pm25":null,"pm10":null,"aqi":null,"band":null},{"station_id":"site_5024","station_name":"Alipur, Delhi - DPCC","city":"Delhi","lat":28.815329,"lon":77.15301,"ward_id":"delhi_4","pm25":435.3,"pm10":644.0,"aqi":500.0,"band":"Severe"},{"station_id":"site_301","station_name":"Anand Vihar, Delhi - DPCC","city":"Delhi","lat":28.647622,"lon":77.315809,"ward_id":"delhi_227","pm25":390.7,"pm10":501.0,"aqi":457.0,"band":"Severe"},{"station_id":"site_1560","station_name":"Bawana, Delhi - DPCC","city":"Delhi","lat":28.7762,"lon":77.051074,"ward_id":"delhi_27","pm25":249.3,"pm10":409.3,"aqi":399.0,"band":"Very Poor"},{"station_id":"site_1421","station_name":"Dr. Karni Singh Shooting Range, Delhi - DPCC","city":"Delhi","lat":28.498571,"lon":77.26484,"ward_id":"delhi_188","pm25":286.0,"pm10":391.3,"aqi":415.0,"band":"Severe"},{"station_id":"site_1423","station_name":"Jahangirpuri, Delhi - DPCC","city":"Delhi","lat":28.73282,"lon":77.170633,"ward_id":"delhi_5","pm25":323.7,"pm10":427.0,"aqi":430.0,"band":"Severe"},{"station_id":"site_109","station_name":"Lodhi Road, Delhi - IMD","city":"Delhi","lat":28.5918245,"lon":77.2273074,"ward_id":"delhi_NDMC_5","pm25":185.3,"pm10":382.3,"aqi":351.0,"band":"Very Poor"},{"station_id":"site_1429","station_name":"Nehru Nagar, Delhi - DPCC","city":"Delhi","lat":28.56789,"lon":77.250515,"ward_id":"delhi_155","pm25":293.0,"pm10":415.0,"aqi":418.0,"band":"Severe"},{"station_id":"site_1431","station_name":"Patparganj, Delhi - DPCC","city":"Delhi","lat":28.623763,"lon":77.287209,"ward_id":"delhi_223","pm25":315.3,"pm10":364.3,"aqi":427.0,"band":"Severe"},{"station_id":"site_119","station_name":"Sirifort, Delhi - CPCB","city":"Delhi","lat":28.5504249,"lon":77.2159377,"ward_id":"delhi_191","pm25":326.2,"pm10":488.0,"aqi":435.0,"band":"Severe"},{"station_id":"site_5810","station_name":"Bandra Kurla Complex, Mumbai - MPCB","city":"Mumbai","lat":19.065931,"lon":72.862131,"ward_id":"mumbai_18","pm25":3.2,"pm10":74.3,"aqi":75.0,"band":"Satisfactory"},{"station_id":"site_5960","station_name":"Byculla, Mumbai - BMC","city":"Mumbai","lat":18.9767,"lon":72.838,"ward_id":"mumbai_5","pm25":42.9,"pm10":70.0,"aqi":72.0,"band":"Satisfactory"},{"station_id":"site_5397","station_name":"Khindipada-Bhandup West, Mumbai - IITM","city":"Mumbai","lat":19.1653323,"lon":72.922099,"ward_id":"mumbai_13","pm25":null,"pm10":null,"aqi":null,"band":null},{"station_id":"site_5104","station_name":"Kurla, Mumbai - MPCB","city":"Mumbai","lat":19.0863,"lon":72.8888,"ward_id":"mumbai_24","pm25":47.9,"pm10":103.7,"aqi":103.0,"band":"Moderate"},{"station_id":"site_5402","station_name":"Malad West, Mumbai - IITM","city":"Mumbai","lat":19.19709,"lon":72.82204,"ward_id":"mumbai_21","pm25":38.3,"pm10":103.3,"aqi":103.0,"band":"Moderate"},{"station_id":"site_5112","station_name":"Powai, Mumbai - MPCB","city":"Mumbai","lat":19.1375,"lon":72.915056,"ward_id":"mumbai_12","pm25":17.3,"pm10":51.0,"aqi":52.0,"band":"Satisfactory"},{"station_id":"site_104","station_name":"Burari Crossing, Delhi - IMD","city":"Delhi","lat":28.7256504,"lon":77.2011573,"ward_id":"delhi_13","pm25":200.6,"pm10":318.3,"aqi":362.0,"band":"Very Poor"},{"station_id":"site_5393","station_name":"Chandni Chowk, Delhi - IITM","city":"Delhi","lat":28.656756,"lon":77.227234,"ward_id":"delhi_80","pm25":null,"pm10":null,"aqi":null,"band":null},{"station_id":"site_118","station_name":"DTU, Delhi - CPCB","city":"Delhi","lat":28.7500499,"lon":77.1112615,"ward_id":"delhi_26","pm25":291.7,"pm10":369.3,"aqi":418.0,"band":"Severe"},{"station_id":"site_1422","station_name":"Dwarka-Sector 8, Delhi - DPCC ","city":"Delhi","lat":28.5710274,"lon":77.0719006,"ward_id":"delhi_141","pm25":312.0,"pm10":405.0,"aqi":426.0,"band":"Severe"},{"station_id":"site_106","station_name":"IGI Airport (T3), Delhi - IMD","city":"Delhi","lat":28.5627763,"lon":77.1180053,"ward_id":"delhi_CANT_6","pm25":209.4,"pm10":412.4,"aqi":378.0,"band":"Very Poor"},{"station_id":"site_117","station_name":"ITO, Delhi - CPCB","city":"Delhi","lat":28.628624,"lon":77.24106,"ward_id":"delhi_81","pm25":223.5,"pm10":354.7,"aqi":380.0,"band":"Very Poor"},{"station_id":"site_1427","station_name":"Najafgarh, Delhi - DPCC","city":"Delhi","lat":28.570173,"lon":76.933762,"ward_id":"delhi_140","pm25":216.7,"pm10":313.7,"aqi":375.0,"band":"Very Poor"},{"station_id":"site_105","station_name":"North Campus, DU, Delhi - IMD","city":"Delhi","lat":28.6573814,"lon":77.1585447,"ward_id":"delhi_94","pm25":null,"pm10":null,"aqi":null,"band":null},{"station_id":"site_125","station_name":"Punjabi Bagh, Delhi - DPCC","city":"Delhi","lat":28.674045,"lon":77.131023,"ward_id":"delhi_103","pm25":299.0,"pm10":399.7,"aqi":420.0,"band":"Severe"},{"station_id":"site_107","station_name":"Pusa, Delhi - IMD","city":"Delhi","lat":28.63611,"lon":77.173332,"ward_id":"delhi_149","pm25":null,"pm10":null,"aqi":null,"band":null},{"station_id":"site_124","station_name":"R K Puram, Delhi - DPCC","city":"Delhi","lat":28.563262,"lon":77.186937,"ward_id":"delhi_167","pm25":297.0,"pm10":394.7,"aqi":420.0,"band":"Severe"},{"station_id":"site_1432","station_name":"Sonia Vihar, Delhi - DPCC","city":"Delhi","lat":28.710508,"lon":77.249485,"ward_id":"delhi_272","pm25":385.3,"pm10":540.0,"aqi":465.0,"band":"Severe"},{"station_id":"site_162","station_name":"BTM Layout, Bengaluru - CPCB","city":"Bengaluru","lat":12.9135218,"lon":77.5950804,"ward_id":"bengaluru_199","pm25":53.5,"pm10":114.2,"aqi":110.0,"band":"Moderate"},{"station_id":"site_165","station_name":"City Railway Station, Bengaluru - KSPCB","city":"Bengaluru","lat":12.9756843,"lon":77.5660749,"ward_id":"bengaluru_134","pm25":null,"pm10":97.1,"aqi":97.0,"band":"Satisfactory"},{"station_id":"site_5681","station_name":"Kasturi Nagar, Bengaluru - KSPCB","city":"Bengaluru","lat":13.003872,"lon":77.664217,"ward_id":"bengaluru_85","pm25":53.7,"pm10":86.6,"aqi":90.0,"band":"Satisfactory"},{"station_id":"site_5113","station_name":"Borivali East, Mumbai - MPCB","city":"Mumbai","lat":19.2243333,"lon":72.8658113,"ward_id":"mumbai_11","pm25":26.3,"pm10":90.5,"aqi":91.0,"band":"Satisfactory"},{"station_id":"site_5399","station_name":"Chakala-Andheri East, Mumbai - IITM","city":"Mumbai","lat":19.11074,"lon":72.86084,"ward_id":"mumbai_19","pm25":52.3,"pm10":96.3,"aqi":96.0,"band":"Satisfactory"},{"station_id":"site_5964","station_name":"Ghatkopar, Mumbai - BMC","city":"Mumbai","lat":19.083694,"lon":72.920967,"ward_id":"mumbai_10","pm25":33.4,"pm10":83.1,"aqi":83.0,"band":"Satisfactory"},{"station_id":"site_5814","station_name":"Kherwadi_Bandra East, Mumbai - MPCB","city":"Mumbai","lat":19.0632143,"lon":72.8456324,"ward_id":"mumbai_18","pm25":35.4,"pm10":60.4,"aqi":61.0,"band":"Satisfactory"},{"station_id":"site_5807","station_name":"Mindspace-Malad West, Mumbai - MPCB","city":"Mumbai","lat":19.1878657,"lon":72.8304069,"ward_id":"mumbai_21","pm25":41.5,"pm10":92.0,"aqi":92.0,"band":"Satisfactory"},{"station_id":"site_5403","station_name":"Siddharth Nagar-Worli, Mumbai - IITM","city":"Mumbai","lat":19.000083,"lon":72.813993,"ward_id":"mumbai_7","pm25":51.6,"pm10":78.2,"aqi":86.0,"band":"Satisfactory"},{"station_id":"site_5119","station_name":"Sion, Mumbai - MPCB","city":"Mumbai","lat":19.047,"lon":72.8746,"ward_id":"mumbai_8","pm25":95.4,"pm10":337.8,"aqi":288.0,"band":"Poor"},{"station_id":"site_5106","station_name":"Vile Parle West, Mumbai - MPCB","city":"Mumbai","lat":19.10861,"lon":72.83622,"ward_id":"mumbai_14","pm25":38.8,"pm10":86.1,"aqi":86.0,"band":"Satisfactory"}]